[
    {
        "_id": 1,
        "name": "Flamingos",
        "coord": "32.735107, -117.149889",
        "Lat": 32.735107,
        "Lng": -117.149889
    },
    {
        "_id": 2,
        "name": "Orangutan",
        "coord": "32.735488, -117.150739",
        "Lat": 32.735488,
        "Lng": -117.150739
    },
    {
        "_id": 3,
        "name": "Gorilla",
        "coord": "32.734738, -117.151511",
        "Lat": 32.734738,
        "Lng": -117.151511
    },
    {
        "_id": 4,
        "name": "Meerkat",
        "coord": "32.739231, -117.150593",
        "Lat": 32.739231,
        "Lng": -117.150593
    },
    {
        "_id": 5,
        "name": "California Condor",
        "coord": "32.739237, -117.151703",
        "Lat": 32.739237,
        "Lng": -117.151703
    },
    {
        "_id": 6,
        "name": "Elephant",
        "coord": "32.737688, -117.153003",
        "Lat": 32.737688,
        "Lng": -117.153003
    },
    {
        "_id": 7,
        "name": "Secretary Bird",
        "coord": "32.737801, -117.153254",
        "Lat": 32.737801,
        "Lng": -117.153254
    },
    {
        "_id": 8,
        "name": "Capybara",
        "coord": "32.736720, -117.153268",
        "Lat": 32.736720,
        "Lng": -117.153268
    },
    {
        "_id": 9,
        "name": "Jaguar",
        "coord": "32.736197, -117.153289",
        "Lat": 32.736197,
        "Lng": -117.153289
    },
    {
        "_id": 10,
        "name": "Lion",
        "coord": "32.735926, -117.153128",
        "Lat": 32.735926,
        "Lng": -117.153128
    },
    {
        "_id": 11,
        "name": "Polar Bear",
        "coord": "32.734443, -117.154644",
        "Lat": 32.734443,
        "Lng": -117.154644
    },
    {
        "_id": 12,
        "name": "Zebra",
        "coord": "32.733802, -117.154462",
        "Lat": 32.733802,
        "Lng": -117.154462
    },
    {
        "_id": 13,
        "name": "Eagle Trail",
        "coord": "32.733813, -117.153869",
        "Lat": 32.733813,
        "Lng": -117.153869
    },
    {
        "_id": 14,
        "name": "Snow Leopard",
        "coord": "32.734531, -117.153086",
        "Lat": 32.734531,
        "Lng": -117.153086
    },
    {
        "_id": 15,
        "name": "Amur Leopard",
        "coord": "32.734420, -117.153000",
        "Lat": 32.734420,
        "Lng": -117.153000
    },
    {
        "_id": 16,
        "name": "Red Panda",
        "coord": "32.734676, -117.152710",
        "Lat": 32.734676,
        "Lng": -117.152710
    },
    {
        "_id": 17,
        "name": "African Penguins",
        "coord": "32.736242, -117.152068",
        "Lat": 32.736242,
        "Lng": -117.152068
    },
    {
        "_id": 18,
        "name": "Dwarf Crocodiles",
        "coord": "32.737252, -117.151933",
        "Lat": 32.737252,
        "Lng": -117.151933
    },
    {
        "_id": 19,
        "name": "Lemurs",
        "coord": "32.737497, -117.151576",
        "Lat": 32.737497,
        "Lng": -117.151576
    },
    {
        "_id": 20,
        "name": "Leopard",
        "coord": "32.737498, -117.150967",
        "Lat": 32.737498,
        "Lng": -117.150967
    },
    {
        "_id": 21,
        "name": "Hamadryas Baboon",
        "coord": "32.738277, -117.150381",
        "Lat": 32.738277,
        "Lng": -117.150381
    },
    {
        "_id": 22,
        "name": "African Rocks Aviary",
        "coord": "32.737807, -117.151470",
        "Lat": 32.737807,
        "Lng": -117.151470
    },
    {
        "_id": 23,
        "name": "Koala",
        "coord": "32.737560, -117.150199",
        "Lat": 32.737560,
        "Lng": -117.150199
    },
    {
        "_id": 24,
        "name": "Rhino",
        "coord": "32.737147, -117.150309",
        "Lat": 32.737147,
        "Lng": -117.150309
    },
    {
        "_id": 25,
        "name": "Giraffe",
        "coord": "32.736804, -117.150349",
        "Lat": 32.736804,
        "Lng": -117.150349
    },
    {
        "_id": 26,
        "name": "Andean Bear",
        "coord": "32.736996, -117.149606",
        "Lat": 32.736996,
        "Lng": -117.149606
    },
    {
        "_id": 27,
        "name": "North American Grizzly Bear",
        "coord": "32.736544, -117.149856",
        "Lat": 32.736544,
        "Lng": -117.149856
    },
    {
        "_id": 28,
        "name": "Sloth Bear",
        "coord": "32.736269, -117.150221",
        "Lat": 32.736269,
        "Lng": -117.150221
    },
    {
        "_id": 29,
        "name": "Hippo",
        "coord": "32.733781, -117.151929",
        "Lat": 32.733781,
        "Lng": -117.151929
    },
    {
        "_id": 30,
        "name": "Tiger",
        "coord": "32.733986, -117.151076",
        "Lat": 32.733986,
        "Lng": -117.151076
    },
    {
        "_id": 31,
        "name": "Reptile House",
        "coord": "32.734261, -117.149429",
        "Lat": 32.734261,
        "Lng": -117.149429
    },
    {
        "_id": 32,
        "name": "Komodo Dragon",
        "coord": "32.733911, -117.149430",
        "Lat": 32.733911,
        "Lng": -117.149430
    },
    {
        "_id": 33,
        "name": "Hummingbird House",
        "coord": "32.733697, -117.149288",
        "Lat": 32.733697,
        "Lng": -117.149288
    },
    {
        "_id": 34,
        "name": "Galapagos Tortoise",
        "coord": "32.733423, -117.150348",
        "Lat": 32.733423,
        "Lng": -117.150348
    },
    {
        "_id": 35,
        "name": "Chinese Alligator",
        "coord": "32.733632, -117.150460",
        "Lat": 32.733632,
        "Lng": -117.150460
    },
    {
        "_id": 36,
        "name": "Axolotl",
        "coord": "32.733173, -117.148844",
        "Lat": 32.733173,
        "Lng": -117.148844
    },
    {
        "_id": 37,
        "name": "Burrowing Owl",
        "coord": "32.733458, -117.148694",
        "Lat": 32.733458,
        "Lng": -117.148694
    },
    {
        "_id": 38,
        "name": "Spineless Marvels",
        "coord": "32.733502, -117.149036",
        "Lat": 32.733502,
        "Lng": -117.149036
    },
    {
        "_id": 39,
        "name": "Owen's Aviary",
        "coord": "32.735450, -117.151155",
        "Lat": 32.735450,
        "Lng": -117.151155
    },
    {
        "_id": 40,
        "name": "Scripp's Aviary",
        "coord": "32.734342, -117.151026",
        "Lat": 32.734342,
        "Lng": -117.151026
    }

]